[
    {
        "id": 5,
        "nom": "Barbe",
        "genre": "F",
        "prenom": "Patricia",
        "job": "Développeur Logiciel",
        "naissance": "1997-03-04",
        "insee": "92050",
        "code_postal": "92000",
        "commune": "Nanterre",
        "coords": {
            "lat": 48.903099028628425,
            "lng": 2.1996055074856056
        },
        "entreprise": {
            "siret": "57220812200075",
            "nom": "LABORATOIRES LEO"
        }
    },
    {
        "id": 6,
        "nom": "Poulain",
        "genre": "F",
        "prenom": "Luce",
        "job": "Data Scientist",
        "naissance": "1964-04-22",
        "insee": "92026",
        "code_postal": "92400",
        "commune": "Courbevoie",
        "coords": {
            "lat": 48.89130018883382,
            "lng": 2.2630541647516473
        },
        "entreprise": {
            "siret": "57220812200075",
            "nom": "LABORATOIRES LEO"
        }
    },
    {
        "id": 8,
        "nom": "Munoz",
        "genre": "H",
        "prenom": "Richard",
        "job": "CISO",
        "naissance": "1989-08-13",
        "insee": "92071",
        "code_postal": "92330",
        "commune": "Sceaux",
        "coords": {
            "lat": 48.778525682518655,
            "lng": 2.299012560361234
        },
        "entreprise": {
            "siret": "57220812200075",
            "nom": "LABORATOIRES LEO"
        }
    },
    {
        "id": 11,
        "nom": "Masson",
        "genre": "F",
        "prenom": "Alexandrie",
        "job": "Chief Information Officer",
        "naissance": "1968-03-02",
        "insee": "92009",
        "code_postal": "92270",
        "commune": "Bois-Colombes",
        "coords": {
            "lat": 48.923399373312485,
            "lng": 2.265418146360974
        },
        "entreprise": {
            "siret": "57220812200075",
            "nom": "LABORATOIRES LEO"
        }
    },
    {
        "id": 13,
        "nom": "Letellier",
        "genre": "H",
        "prenom": "Marc",
        "naissance": "1968-05-07",
        "insee": "92040",
        "code_postal": "92130",
        "commune": "Issy-les-Moulineaux",
        "coords": {
            "lat": 48.816098432482804,
            "lng": 2.2566155961951546
        },
        "entreprise": {
            "siret": "57220812200075",
            "nom": "LABORATOIRES LEO"
        }
    },
    {
        "id": 18,
        "nom": "Charrier",
        "genre": "F",
        "prenom": "Margaud",
        "job": "Développeur PHP",
        "naissance": "1988-07-13",
        "insee": "92048",
        "code_postal": "92190",
        "commune": "Meudon",
        "coords": {
            "lat": 48.79546672728176,
            "lng": 2.2308593160544583
        },
        "entreprise": {
            "siret": "57220812200075",
            "nom": "LABORATOIRES LEO"
        }
    },
    {
        "id": 20,
        "nom": "Pottier",
        "genre": "H",
        "prenom": "Luc",
        "job": "Développeur Logiciel",
        "naissance": "1962-05-18",
        "insee": "92026",
        "code_postal": "92400",
        "commune": "Courbevoie",
        "coords": {
            "lat": 48.89416275833231,
            "lng": 2.2457725410180713
        },
        "entreprise": {
            "siret": "57220812200075",
            "nom": "LABORATOIRES LEO"
        }
    },
    {
        "id": 21,
        "nom": "Courtois",
        "genre": "H",
        "prenom": "Antoine",
        "job": "Ingénieur QA",
        "naissance": "1962-07-01",
        "insee": "92051",
        "code_postal": "92200",
        "commune": "Neuilly-sur-Seine",
        "coords": {
            "lat": 48.88053345026151,
            "lng": 2.2786946201089897
        },
        "entreprise": {
            "siret": "57220812200075",
            "nom": "LABORATOIRES LEO"
        }
    },
    {
        "id": 22,
        "nom": "Pierre",
        "genre": "F",
        "prenom": "Clémence",
        "naissance": "2001-02-17",
        "insee": "92047",
        "code_postal": "92430",
        "commune": "Marnes-la-Coquette",
        "coords": {
            "lat": 48.83424972405383,
            "lng": 2.156528261770962
        },
        "entreprise": {
            "siret": "57220812200075",
            "nom": "LABORATOIRES LEO"
        }
    },
    {
        "id": 23,
        "nom": "Rossi",
        "genre": "F",
        "prenom": "Françoise",
        "job": "Ingénieur QA",
        "naissance": "1972-06-09",
        "insee": "92076",
        "code_postal": "92420",
        "commune": "Vaucresson",
        "coords": {
            "lat": 48.840159508204685,
            "lng": 2.159579174572177
        },
        "entreprise": {
            "siret": "57220812200075",
            "nom": "LABORATOIRES LEO"
        }
    },
    {
        "id": 27,
        "nom": "Denis",
        "genre": "H",
        "prenom": "Timothée",
        "job": "UI Designer",
        "naissance": "1958-10-27",
        "insee": "92033",
        "code_postal": "92380",
        "commune": "Garches",
        "coords": {
            "lat": 48.84788268207759,
            "lng": 2.186498980490675
        }
    },
    {
        "id": 28,
        "nom": "Lejeune",
        "genre": "H",
        "prenom": "Augustin",
        "job": "Directeur Technique",
        "naissance": "1981-08-08",
        "insee": "92078",
        "code_postal": "92390",
        "commune": "Villeneuve-la-Garenne",
        "coords": {
            "lat": 48.93657322511558,
            "lng": 2.3209592558969674
        },
        "entreprise": {
            "siret": "57220812200075",
            "nom": "LABORATOIRES LEO"
        }
    },
    {
        "id": 29,
        "nom": "Reynaud",
        "genre": "F",
        "prenom": "Claire",
        "job": "Développeur Python",
        "naissance": "1990-09-20",
        "insee": "92032",
        "code_postal": "92260",
        "commune": "Fontenay-aux-Roses",
        "coords": {
            "lat": 48.78600666770487,
            "lng": 2.283608550540406
        },
        "entreprise": {
            "siret": "57220812200075",
            "nom": "LABORATOIRES LEO"
        }
    },
    {
        "id": 30,
        "nom": "Lejeune",
        "genre": "F",
        "prenom": "Claude",
        "job": "Développeur Android",
        "naissance": "2003-01-24",
        "insee": "92073",
        "code_postal": "92150",
        "commune": "Suresnes",
        "coords": {
            "lat": 48.86449237737534,
            "lng": 2.2196624791741106
        }
    },
    {
        "id": 32,
        "nom": "Moreau",
        "genre": "F",
        "prenom": "Philippine",
        "job": "Développeur Ruby",
        "naissance": "1974-07-31",
        "insee": "92075",
        "code_postal": "92170",
        "commune": "Vanves",
        "coords": {
            "lat": 48.824371548263976,
            "lng": 2.273675627170983
        }
    },
    {
        "id": 33,
        "nom": "Roux",
        "genre": "F",
        "prenom": "Marthe",
        "naissance": "1957-11-03",
        "insee": "92076",
        "code_postal": "92420",
        "commune": "Vaucresson",
        "coords": {
            "lat": 48.843488575792,
            "lng": 2.178257349405658
        },
        "entreprise": {
            "siret": "57220812200075",
            "nom": "LABORATOIRES LEO"
        }
    },
    {
        "id": 34,
        "nom": "Martel",
        "genre": "F",
        "prenom": "Michelle",
        "naissance": "1985-05-22",
        "insee": "92076",
        "code_postal": "92420",
        "commune": "Vaucresson",
        "coords": {
            "lat": 48.83341781051983,
            "lng": 2.1627325874653627
        },
        "entreprise": {
            "siret": "57220812200075",
            "nom": "LABORATOIRES LEO"
        }
    },
    {
        "id": 35,
        "nom": "Thomas",
        "genre": "F",
        "prenom": "Océane",
        "naissance": "1967-08-26",
        "insee": "92014",
        "code_postal": "92340",
        "commune": "Bourg-la-Reine",
        "coords": {
            "lat": 48.78470194177366,
            "lng": 2.325769027104065
        },
        "entreprise": {
            "siret": "77572845400247",
            "nom": "AFORP FORMATION"
        }
    },
    {
        "id": 37,
        "nom": "Pascal",
        "genre": "H",
        "prenom": "Franck",
        "job": "UI Designer",
        "naissance": "2005-01-03",
        "insee": "92036",
        "code_postal": "92230",
        "commune": "Gennevilliers",
        "coords": {
            "lat": 48.92733507746741,
            "lng": 2.2929725163639687
        }
    },
    {
        "id": 40,
        "nom": "Laine",
        "genre": "H",
        "prenom": "Jules",
        "naissance": "1958-03-31",
        "insee": "92014",
        "code_postal": "92340",
        "commune": "Bourg-la-Reine",
        "coords": {
            "lat": 48.77890492701742,
            "lng": 2.317497672185933
        }
    },
    {
        "id": 51,
        "nom": "Andre",
        "genre": "H",
        "prenom": "Guillaume",
        "naissance": "1965-03-31",
        "insee": "92044",
        "code_postal": "92300",
        "commune": "Levallois-Perret",
        "coords": {
            "lat": 48.902868688751944,
            "lng": 2.2848751616823626
        },
        "entreprise": {
            "siret": "57220812200075",
            "nom": "LABORATOIRES LEO"
        }
    },
    {
        "id": 53,
        "nom": "Texier",
        "genre": "F",
        "prenom": "Christelle",
        "job": "Développeur Python",
        "naissance": "1968-03-26",
        "insee": "92073",
        "code_postal": "92150",
        "commune": "Suresnes",
        "coords": {
            "lat": 48.8764229492064,
            "lng": 2.212521179009156
        }
    },
    {
        "id": 54,
        "nom": "Le Gall",
        "genre": "F",
        "prenom": "Marine",
        "job": "CISO",
        "naissance": "1971-10-22",
        "insee": "92050",
        "code_postal": "92000",
        "commune": "Nanterre",
        "coords": {
            "lat": 48.892803801918085,
            "lng": 2.19004078256791
        }
    },
    {
        "id": 56,
        "nom": "Le Roux",
        "genre": "F",
        "prenom": "Brigitte",
        "naissance": "2002-06-30",
        "insee": "92047",
        "code_postal": "92430",
        "commune": "Marnes-la-Coquette",
        "coords": {
            "lat": 48.83624945629615,
            "lng": 2.1692430382977568
        }
    },
    {
        "id": 63,
        "nom": "Delorme",
        "genre": "F",
        "prenom": "Laetitia",
        "job": "Développeur Java",
        "naissance": "1972-08-25",
        "insee": "92049",
        "code_postal": "92120",
        "commune": "Montrouge",
        "coords": {
            "lat": 48.82205256126437,
            "lng": 2.314533269907747
        }
    },
    {
        "id": 76,
        "nom": "Girard",
        "genre": "F",
        "prenom": "Marine",
        "job": "Administrateur Système",
        "naissance": "1956-03-22",
        "insee": "92009",
        "code_postal": "92270",
        "commune": "Bois-Colombes",
        "coords": {
            "lat": 48.912453801500824,
            "lng": 2.272962866435668
        }
    },
    {
        "id": 78,
        "nom": "Vallet",
        "genre": "F",
        "prenom": "Laetitia",
        "job": "Lead Developer",
        "naissance": "1979-11-12",
        "insee": "92049",
        "code_postal": "92120",
        "commune": "Montrouge",
        "coords": {
            "lat": 48.8202129702452,
            "lng": 2.321949529212336
        }
    },
    {
        "id": 93,
        "nom": "Vincent",
        "genre": "F",
        "prenom": "Élodie",
        "job": "Data Scientist",
        "naissance": "1971-05-02",
        "insee": "92063",
        "code_postal": "92500",
        "commune": "Rueil-Malmaison",
        "coords": {
            "lat": 48.877387029131285,
            "lng": 2.1693199427256045
        }
    },
    {
        "id": 94,
        "nom": "Sanchez",
        "genre": "H",
        "prenom": "Patrick",
        "job": "Développeur iOS",
        "naissance": "1956-04-19",
        "insee": "92032",
        "code_postal": "92260",
        "commune": "Fontenay-aux-Roses",
        "coords": {
            "lat": 48.795996876527695,
            "lng": 2.2873597267645844
        }
    },
    {
        "id": 95,
        "nom": "Thibault",
        "genre": "F",
        "prenom": "Christine",
        "naissance": "1976-03-07",
        "insee": "92022",
        "code_postal": "92370",
        "commune": "Chaville",
        "coords": {
            "lat": 48.803642810916855,
            "lng": 2.1842900916912837
        }
    },
    {
        "id": 96,
        "nom": "Foucher",
        "genre": "H",
        "prenom": "Théodore",
        "job": "Développeur Java",
        "naissance": "1997-09-05",
        "insee": "92075",
        "code_postal": "92170",
        "commune": "Vanves",
        "coords": {
            "lat": 48.81709472434997,
            "lng": 2.2886743215531338
        },
        "entreprise": {
            "siret": "57220812200075",
            "nom": "LABORATOIRES LEO"
        }
    },
    {
        "id": 97,
        "nom": "Vidal",
        "genre": "F",
        "prenom": "Élodie",
        "naissance": "2006-12-26",
        "insee": "92048",
        "code_postal": "92360",
        "commune": "Meudon",
        "coords": {
            "lat": 48.80999922066857,
            "lng": 2.2411589741040876
        },
        "entreprise": {
            "siret": "77572987400245",
            "nom": "LES PAPILLONS BLANCS DE LA COLLINE"
        }
    },
    {
        "id": 99,
        "nom": "Fernandes",
        "genre": "F",
        "prenom": "Cécile",
        "job": "UI Designer",
        "naissance": "2002-05-29",
        "insee": "92020",
        "code_postal": "92320",
        "commune": "Châtillon",
        "coords": {
            "lat": 48.80038700279608,
            "lng": 2.2965306465179434
        },
        "entreprise": {
            "siret": "77572987400245",
            "nom": "LES PAPILLONS BLANCS DE LA COLLINE"
        }
    },
    {
        "id": 100,
        "nom": "Girard",
        "genre": "F",
        "prenom": "Manon",
        "job": "Data Manager",
        "naissance": "1997-01-30",
        "insee": "92026",
        "code_postal": "92400",
        "commune": "Courbevoie",
        "coords": {
            "lat": 48.898448022797325,
            "lng": 2.255843146897846
        },
        "entreprise": {
            "siret": "77572987400245",
            "nom": "LES PAPILLONS BLANCS DE LA COLLINE"
        }
    },
    {
        "id": 114,
        "nom": "Gomes",
        "genre": "H",
        "prenom": "Hugues",
        "job": "Data Scientist",
        "naissance": "1957-10-18",
        "insee": "92046",
        "code_postal": "92240",
        "commune": "Malakoff",
        "coords": {
            "lat": 48.81347688048421,
            "lng": 2.289687253073812
        }
    },
    {
        "id": 117,
        "nom": "Humbert",
        "genre": "F",
        "prenom": "Bernadette",
        "job": "Développeur Python",
        "naissance": "1991-03-05",
        "insee": "92009",
        "code_postal": "92270",
        "commune": "Bois-Colombes",
        "coords": {
            "lat": 48.921796651267215,
            "lng": 2.2576949050331883
        },
        "entreprise": {
            "siret": "77572987400245",
            "nom": "LES PAPILLONS BLANCS DE LA COLLINE"
        }
    },
    {
        "id": 138,
        "nom": "Langlois",
        "genre": "F",
        "prenom": "Jeannine",
        "job": "Data Scientist",
        "naissance": "1989-05-30",
        "insee": "92047",
        "code_postal": "92430",
        "commune": "Marnes-la-Coquette",
        "coords": {
            "lat": 48.83189556769002,
            "lng": 2.178515652775963
        },
        "entreprise": {
            "siret": "77572987400245",
            "nom": "LES PAPILLONS BLANCS DE LA COLLINE"
        }
    },
    {
        "id": 143,
        "nom": "Antoine",
        "genre": "F",
        "prenom": "Valentine",
        "job": "Consultant CRM",
        "naissance": "1959-02-15",
        "insee": "92009",
        "code_postal": "92270",
        "commune": "Bois-Colombes",
        "coords": {
            "lat": 48.914927040099975,
            "lng": 2.266384824610149
        },
        "entreprise": {
            "siret": "77572987400245",
            "nom": "LES PAPILLONS BLANCS DE LA COLLINE"
        }
    },
    {
        "id": 147,
        "nom": "Clément",
        "genre": "F",
        "prenom": "Isabelle",
        "job": "Data Scientist",
        "naissance": "1966-12-03",
        "insee": "92048",
        "code_postal": "92190",
        "commune": "Meudon",
        "coords": {
            "lat": 48.80874554271696,
            "lng": 2.2331253948253695
        }
    },
    {
        "id": 151,
        "nom": "Aubry",
        "genre": "F",
        "prenom": "Corinne",
        "job": "Responsable Web Marketing",
        "naissance": "1996-11-23",
        "insee": "92009",
        "code_postal": "92270",
        "commune": "Bois-Colombes",
        "coords": {
            "lat": 48.90969587583115,
            "lng": 2.258482654095244
        }
    },
    {
        "id": 152,
        "nom": "Girard",
        "genre": "F",
        "prenom": "Véronique",
        "job": "Chef de Projet Technique",
        "naissance": "1985-09-19",
        "insee": "92002",
        "code_postal": "92160",
        "commune": "Antony",
        "coords": {
            "lat": 48.742167830005,
            "lng": 2.298770729650733
        },
        "entreprise": {
            "siret": "77572987400245",
            "nom": "LES PAPILLONS BLANCS DE LA COLLINE"
        }
    },
    {
        "id": 154,
        "nom": "Coulon",
        "genre": "F",
        "prenom": "Geneviève",
        "job": "Développeur web",
        "naissance": "1984-01-12",
        "insee": "92035",
        "code_postal": "92250",
        "commune": "Garenne-Colombes",
        "coords": {
            "lat": 48.91299880277215,
            "lng": 2.245619213393289
        },
        "entreprise": {
            "siret": "77572987400245",
            "nom": "LES PAPILLONS BLANCS DE LA COLLINE"
        }
    },
    {
        "id": 158,
        "nom": "Blondel",
        "genre": "H",
        "prenom": "Thomas",
        "job": "Responsable Web Marketing",
        "naissance": "1978-05-15",
        "insee": "92002",
        "code_postal": "92160",
        "commune": "Antony",
        "coords": {
            "lat": 48.74486080984147,
            "lng": 2.2942374126198697
        },
        "entreprise": {
            "siret": "77572987400245",
            "nom": "LES PAPILLONS BLANCS DE LA COLLINE"
        }
    },
    {
        "id": 160,
        "nom": "Jacques",
        "genre": "H",
        "prenom": "Franck",
        "job": "Scrum Master",
        "naissance": "1967-02-19",
        "insee": "92062",
        "code_postal": "92800",
        "commune": "Puteaux",
        "coords": {
            "lat": 48.885970309475276,
            "lng": 2.2318815673807135
        },
        "entreprise": {
            "siret": "77572987400245",
            "nom": "LES PAPILLONS BLANCS DE LA COLLINE"
        }
    },
    {
        "id": 162,
        "nom": "Prévost",
        "genre": "H",
        "prenom": "Étienne",
        "job": "Développeur PHP",
        "naissance": "2005-08-26",
        "insee": "92036",
        "code_postal": "92230",
        "commune": "Gennevilliers",
        "coords": {
            "lat": 48.92865440820712,
            "lng": 2.2814529798676104
        }
    },
    {
        "id": 167,
        "nom": "Joseph",
        "genre": "H",
        "prenom": "Alexandre",
        "job": "Développeur Front End",
        "naissance": "2005-03-23",
        "insee": "92007",
        "code_postal": "92220",
        "commune": "Bagneux",
        "coords": {
            "lat": 48.79239028471888,
            "lng": 2.316565166028855
        }
    },
    {
        "id": 176,
        "nom": "Verdier",
        "genre": "F",
        "prenom": "Pauline",
        "job": "UI Designer",
        "naissance": "1958-01-06",
        "insee": "92064",
        "code_postal": "92210",
        "commune": "Saint-Cloud",
        "coords": {
            "lat": 48.8424252368185,
            "lng": 2.1987176252050173
        },
        "entreprise": {
            "siret": "77572987400245",
            "nom": "LES PAPILLONS BLANCS DE LA COLLINE"
        }
    },
    {
        "id": 181,
        "nom": "Boulanger",
        "genre": "F",
        "prenom": "Denise",
        "job": "Développeur .NET",
        "naissance": "2003-07-28",
        "insee": "92050",
        "code_postal": "92000",
        "commune": "Nanterre",
        "coords": {
            "lat": 48.900186492537834,
            "lng": 2.1923705258696575
        }
    },
    {
        "id": 190,
        "nom": "Berthelot",
        "genre": "H",
        "prenom": "Gabriel",
        "job": "Développeur Python",
        "naissance": "1987-02-06",
        "insee": "92044",
        "code_postal": "92300",
        "commune": "Levallois-Perret",
        "coords": {
            "lat": 48.897328022580275,
            "lng": 2.290846708669519
        },
        "entreprise": {
            "siret": "77572987400245",
            "nom": "LES PAPILLONS BLANCS DE LA COLLINE"
        }
    },
    {
        "id": 191,
        "nom": "Tessier",
        "genre": "F",
        "prenom": "Diane",
        "job": "Développeur PHP",
        "naissance": "2007-02-15",
        "insee": "92009",
        "code_postal": "92270",
        "commune": "Bois-Colombes",
        "coords": {
            "lat": 48.91882738162235,
            "lng": 2.2767222232627806
        },
        "entreprise": {
            "siret": "77572987400245",
            "nom": "LES PAPILLONS BLANCS DE LA COLLINE"
        }
    },
    {
        "id": 193,
        "nom": "Faivre",
        "genre": "F",
        "prenom": "Frédérique",
        "job": "Développeur PHP",
        "naissance": "1970-12-31",
        "insee": "92020",
        "code_postal": "92320",
        "commune": "Châtillon",
        "coords": {
            "lat": 48.803122544368065,
            "lng": 2.3001417553527017
        }
    },
    {
        "id": 194,
        "nom": "Hamon",
        "genre": "F",
        "prenom": "Sophie",
        "naissance": "1985-12-25",
        "insee": "92071",
        "code_postal": "92330",
        "commune": "Sceaux",
        "coords": {
            "lat": 48.78429647846825,
            "lng": 2.299230210872493
        },
        "entreprise": {
            "siret": "77572987400245",
            "nom": "LES PAPILLONS BLANCS DE LA COLLINE"
        }
    },
    {
        "id": 201,
        "nom": "Paul",
        "genre": "F",
        "prenom": "Catherine",
        "naissance": "1982-06-09",
        "insee": "92012",
        "code_postal": "92100",
        "commune": "Boulogne-Billancourt",
        "coords": {
            "lat": 48.835930657974984,
            "lng": 2.235968293105997
        }
    },
    {
        "id": 210,
        "nom": "Olivier",
        "genre": "F",
        "prenom": "Dorothée",
        "job": "Développeur Java",
        "naissance": "1978-08-05",
        "insee": "92071",
        "code_postal": "92330",
        "commune": "Sceaux",
        "coords": {
            "lat": 48.77174299021166,
            "lng": 2.2949807930065713
        },
        "entreprise": {
            "siret": "77572987400245",
            "nom": "LES PAPILLONS BLANCS DE LA COLLINE"
        }
    },
    {
        "id": 241,
        "nom": "Cohen",
        "genre": "F",
        "prenom": "Claude",
        "job": "Administrateur Système",
        "naissance": "1962-05-11",
        "insee": "92071",
        "code_postal": "92330",
        "commune": "Sceaux",
        "coords": {
            "lat": 48.772111310430745,
            "lng": 2.2993904909154548
        },
        "entreprise": {
            "siret": "77572987400245",
            "nom": "LES PAPILLONS BLANCS DE LA COLLINE"
        }
    },
    {
        "id": 243,
        "nom": "Dias",
        "genre": "H",
        "prenom": "Noël",
        "job": "Développeur Full Stack",
        "naissance": "1978-10-09",
        "insee": "92012",
        "code_postal": "92100",
        "commune": "Boulogne-Billancourt",
        "coords": {
            "lat": 48.842042863909796,
            "lng": 2.2516834178227616
        }
    },
    {
        "id": 244,
        "nom": "Cousin",
        "genre": "F",
        "prenom": "Julie",
        "naissance": "1964-10-17",
        "insee": "92036",
        "code_postal": "92230",
        "commune": "Gennevilliers",
        "coords": {
            "lat": 48.9277518696375,
            "lng": 2.2881842428519783
        },
        "entreprise": {
            "siret": "77572987400245",
            "nom": "LES PAPILLONS BLANCS DE LA COLLINE"
        }
    },
    {
        "id": 250,
        "nom": "Petit",
        "genre": "H",
        "prenom": "Nicolas",
        "job": "Directeur Technique",
        "naissance": "1972-10-07",
        "insee": "92033",
        "code_postal": "92380",
        "commune": "Garches",
        "coords": {
            "lat": 48.847864051520006,
            "lng": 2.1760097562085816
        },
        "entreprise": {
            "siret": "55209089600044",
            "nom": "SOC ANTONA ET COFI"
        }
    },
    {
        "id": 251,
        "nom": "Boulanger",
        "genre": "F",
        "prenom": "Frédérique",
        "job": "Développeur PHP",
        "naissance": "1957-12-01",
        "insee": "92077",
        "code_postal": "92410",
        "commune": "Ville-d'Avray",
        "coords": {
            "lat": 48.82568228284939,
            "lng": 2.17619912318614
        },
        "entreprise": {
            "siret": "77572987400245",
            "nom": "LES PAPILLONS BLANCS DE LA COLLINE"
        }
    },
    {
        "id": 252,
        "nom": "Perrin",
        "genre": "F",
        "prenom": "Agathe",
        "naissance": "1956-08-28",
        "insee": "92077",
        "code_postal": "92410",
        "commune": "Ville-d'Avray",
        "coords": {
            "lat": 48.82153660210836,
            "lng": 2.172652115981417
        },
        "entreprise": {
            "siret": "77572987400245",
            "nom": "LES PAPILLONS BLANCS DE LA COLLINE"
        }
    },
    {
        "id": 297,
        "nom": "Georges",
        "genre": "H",
        "prenom": "Henri",
        "naissance": "1987-01-23",
        "insee": "92046",
        "code_postal": "92240",
        "commune": "Malakoff",
        "coords": {
            "lat": 48.81004286429634,
            "lng": 2.285148802601412
        }
    },
    {
        "id": 302,
        "nom": "Valette",
        "genre": "F",
        "prenom": "Capucine",
        "job": "Administrateur Système",
        "naissance": "1995-09-07",
        "insee": "92076",
        "code_postal": "92420",
        "commune": "Vaucresson",
        "coords": {
            "lat": 48.8368368625323,
            "lng": 2.172529900758704
        },
        "entreprise": {
            "siret": "77572987400245",
            "nom": "LES PAPILLONS BLANCS DE LA COLLINE"
        }
    },
    {
        "id": 303,
        "nom": "Michel",
        "genre": "F",
        "prenom": "Susanne",
        "job": "Administrateur Système",
        "naissance": "1983-02-16",
        "insee": "92004",
        "code_postal": "92600",
        "commune": "Asnières-sur-Seine",
        "coords": {
            "lat": 48.911144176304276,
            "lng": 2.287154062692576
        },
        "entreprise": {
            "siret": "77572987400245",
            "nom": "LES PAPILLONS BLANCS DE LA COLLINE"
        }
    },
    {
        "id": 317,
        "nom": "Thierry",
        "genre": "H",
        "prenom": "Frédéric",
        "job": "Développeur Back End",
        "naissance": "2000-04-29",
        "insee": "92020",
        "code_postal": "92320",
        "commune": "Châtillon",
        "coords": {
            "lat": 48.809086758173294,
            "lng": 2.297950797787787
        },
        "entreprise": {
            "siret": "52926406100092",
            "nom": "VILLA D'EPIDAURE"
        }
    },
    {
        "id": 331,
        "nom": "Martinez",
        "genre": "F",
        "prenom": "Noémi",
        "naissance": "1996-07-05",
        "insee": "92046",
        "code_postal": "92240",
        "commune": "Malakoff",
        "coords": {
            "lat": 48.824120529757195,
            "lng": 2.2830235367998064
        }
    },
    {
        "id": 337,
        "nom": "Gilbert",
        "genre": "F",
        "prenom": "Andrée",
        "naissance": "1993-08-14",
        "insee": "92035",
        "code_postal": "92250",
        "commune": "Garenne-Colombes",
        "coords": {
            "lat": 48.902474227807275,
            "lng": 2.237422197734439
        },
        "entreprise": {
            "siret": "42505055602377",
            "nom": "CARGLASS"
        }
    },
    {
        "id": 342,
        "nom": "Lopez",
        "genre": "F",
        "prenom": "Élisabeth",
        "job": "Développeur Logiciel",
        "naissance": "2005-11-22",
        "insee": "92075",
        "code_postal": "92170",
        "commune": "Vanves",
        "coords": {
            "lat": 48.826405310919036,
            "lng": 2.2917880881426735
        },
        "entreprise": {
            "siret": "52926406100092",
            "nom": "VILLA D'EPIDAURE"
        }
    },
    {
        "id": 346,
        "nom": "Charles",
        "genre": "F",
        "prenom": "Juliette",
        "job": "Développeur .NET",
        "naissance": "1973-10-13",
        "insee": "92078",
        "code_postal": "92390",
        "commune": "Villeneuve-la-Garenne",
        "coords": {
            "lat": 48.93659033901699,
            "lng": 2.318805246872841
        }
    },
    {
        "id": 367,
        "nom": "Devaux",
        "genre": "H",
        "prenom": "Stéphane",
        "job": "CRM Manager",
        "naissance": "1997-11-04",
        "insee": "92047",
        "code_postal": "92430",
        "commune": "Marnes-la-Coquette",
        "coords": {
            "lat": 48.832539646879646,
            "lng": 2.173838410093877
        }
    },
    {
        "id": 368,
        "nom": "Delattre",
        "genre": "H",
        "prenom": "Luc",
        "naissance": "2002-09-12",
        "insee": "92014",
        "code_postal": "92340",
        "commune": "Bourg-la-Reine",
        "coords": {
            "lat": 48.78762118665042,
            "lng": 2.3231117545975115
        }
    },
    {
        "id": 403,
        "nom": "Laine",
        "genre": "F",
        "prenom": "Maggie",
        "job": "Testeur QA",
        "naissance": "1959-06-07",
        "insee": "92060",
        "code_postal": "92350",
        "commune": "Plessis-Robinson",
        "coords": {
            "lat": 48.784518652432745,
            "lng": 2.270632110076335
        },
        "entreprise": {
            "siret": "52926406100092",
            "nom": "VILLA D'EPIDAURE"
        }
    },
    {
        "id": 420,
        "nom": "Bouvet",
        "genre": "F",
        "prenom": "Alexandria",
        "job": "Directeur Technique",
        "naissance": "1987-10-19",
        "insee": "92004",
        "code_postal": "92600",
        "commune": "Asnières-sur-Seine",
        "coords": {
            "lat": 48.91688424233347,
            "lng": 2.293753357198672
        }
    },
    {
        "id": 429,
        "nom": "Jacquet",
        "genre": "F",
        "prenom": "Marguerite",
        "job": "Chief Information Officer",
        "naissance": "1971-12-13",
        "insee": "92035",
        "code_postal": "92250",
        "commune": "Garenne-Colombes",
        "coords": {
            "lat": 48.89906490401691,
            "lng": 2.2319701421095526
        }
    },
    {
        "id": 432,
        "nom": "Daniel",
        "genre": "F",
        "prenom": "Charlotte",
        "job": "Développeur Front End",
        "naissance": "1983-03-22",
        "insee": "92004",
        "code_postal": "92600",
        "commune": "Asnières-sur-Seine",
        "coords": {
            "lat": 48.92646118112043,
            "lng": 2.305806661768171
        },
        "entreprise": {
            "siret": "52926406100092",
            "nom": "VILLA D'EPIDAURE"
        }
    },
    {
        "id": 435,
        "nom": "Berger",
        "genre": "F",
        "prenom": "Virginie",
        "job": "CISO",
        "naissance": "1997-12-17",
        "insee": "92048",
        "code_postal": "92190",
        "commune": "Meudon",
        "coords": {
            "lat": 48.80830217651974,
            "lng": 2.2377228943840213
        }
    },
    {
        "id": 445,
        "nom": "Pichon",
        "genre": "F",
        "prenom": "Chantal",
        "job": "Développeur Front End",
        "naissance": "1968-06-25",
        "insee": "92062",
        "code_postal": "92800",
        "commune": "Puteaux",
        "coords": {
            "lat": 48.881585534409176,
            "lng": 2.238298483608559
        }
    },
    {
        "id": 447,
        "nom": "Legrand",
        "genre": "H",
        "prenom": "Zacharie",
        "job": "Développeur Logiciel",
        "naissance": "1977-02-02",
        "insee": "92026",
        "code_postal": "92400",
        "commune": "Courbevoie",
        "coords": {
            "lat": 48.90111953336233,
            "lng": 2.268835663124266
        }
    },
    {
        "id": 448,
        "nom": "Pottier",
        "genre": "H",
        "prenom": "Eugène",
        "job": "Directeur Technique",
        "naissance": "1980-05-01",
        "insee": "92050",
        "code_postal": "92000",
        "commune": "Nanterre",
        "coords": {
            "lat": 48.89969400549689,
            "lng": 2.2131996496717874
        }
    },
    {
        "id": 449,
        "nom": "Rodriguez",
        "genre": "F",
        "prenom": "Frédérique",
        "job": "Développeur iOS",
        "naissance": "1981-06-23",
        "insee": "92078",
        "code_postal": "92390",
        "commune": "Villeneuve-la-Garenne",
        "coords": {
            "lat": 48.943581201488726,
            "lng": 2.332401008451193
        },
        "entreprise": {
            "siret": "52926406100092",
            "nom": "VILLA D'EPIDAURE"
        }
    },
    {
        "id": 450,
        "nom": "Masse",
        "genre": "F",
        "prenom": "Clémence",
        "job": "Développeur iOS",
        "naissance": "1996-01-11",
        "insee": "92007",
        "code_postal": "92220",
        "commune": "Bagneux",
        "coords": {
            "lat": 48.79763873894673,
            "lng": 2.2970447066321538
        }
    },
    {
        "id": 452,
        "nom": "Perez",
        "genre": "F",
        "prenom": "Renée",
        "job": "Scrum Master",
        "naissance": "1977-12-22",
        "insee": "92075",
        "code_postal": "92170",
        "commune": "Vanves",
        "coords": {
            "lat": 48.82181214639543,
            "lng": 2.298908654264914
        }
    },
    {
        "id": 458,
        "nom": "Chevallier",
        "genre": "F",
        "prenom": "Colette",
        "job": "Développeur PHP",
        "naissance": "1989-09-18",
        "insee": "92046",
        "code_postal": "92240",
        "commune": "Malakoff",
        "coords": {
            "lat": 48.81026108015814,
            "lng": 2.28753128872846
        },
        "entreprise": {
            "siret": "52926406100092",
            "nom": "VILLA D'EPIDAURE"
        }
    },
    {
        "id": 469,
        "nom": "Meunier",
        "genre": "F",
        "prenom": "Danielle",
        "job": "Consultant CRM",
        "naissance": "1985-09-20",
        "insee": "92024",
        "code_postal": "92110",
        "commune": "Clichy",
        "coords": {
            "lat": 48.90702265511193,
            "lng": 2.2997317378823516
        },
        "entreprise": {
            "siret": "94104005700023",
            "nom": "ASR"
        }
    },
    {
        "id": 470,
        "nom": "Prévost",
        "genre": "H",
        "prenom": "Paul",
        "job": "Ingénieur QA",
        "naissance": "1996-12-27",
        "insee": "92077",
        "code_postal": "92410",
        "commune": "Ville-d'Avray",
        "coords": {
            "lat": 48.82905861494447,
            "lng": 2.186581788993646
        }
    },
    {
        "id": 471,
        "nom": "Carre",
        "genre": "F",
        "prenom": "Odette",
        "naissance": "1958-08-25",
        "insee": "92076",
        "code_postal": "92420",
        "commune": "Vaucresson",
        "coords": {
            "lat": 48.838966148550725,
            "lng": 2.1544172366328227
        }
    },
    {
        "id": 479,
        "nom": "Huet",
        "genre": "F",
        "prenom": "Denise",
        "job": "Développeur Full Stack",
        "naissance": "2002-02-20",
        "insee": "92033",
        "code_postal": "92380",
        "commune": "Garches",
        "coords": {
            "lat": 48.84899375629975,
            "lng": 2.195015571964016
        }
    },
    {
        "id": 480,
        "nom": "Fernandes",
        "genre": "F",
        "prenom": "Inès",
        "job": "Développeur web",
        "naissance": "1977-06-06",
        "insee": "92044",
        "code_postal": "92300",
        "commune": "Levallois-Perret",
        "coords": {
            "lat": 48.90144377348682,
            "lng": 2.2974967403240925
        }
    },
    {
        "id": 481,
        "nom": "Lebrun",
        "genre": "H",
        "prenom": "Richard",
        "job": "Développeur Mobile",
        "naissance": "1994-08-23",
        "insee": "92073",
        "code_postal": "92150",
        "commune": "Suresnes",
        "coords": {
            "lat": 48.86771421488837,
            "lng": 2.2280223873378255
        },
        "entreprise": {
            "siret": "52926406100092",
            "nom": "VILLA D'EPIDAURE"
        }
    },
    {
        "id": 482,
        "nom": "Hamel",
        "genre": "H",
        "prenom": "Philippe",
        "naissance": "1996-10-15",
        "insee": "92004",
        "code_postal": "92600",
        "commune": "Asnières-sur-Seine",
        "coords": {
            "lat": 48.91652269510194,
            "lng": 2.2832294703350873
        }
    },
    {
        "id": 487,
        "nom": "Hervé",
        "genre": "H",
        "prenom": "Gérard",
        "job": "Scrum Master",
        "naissance": "1981-01-01",
        "insee": "92026",
        "code_postal": "92400",
        "commune": "Courbevoie",
        "coords": {
            "lat": 48.897774125516,
            "lng": 2.2556885473741404
        },
        "entreprise": {
            "siret": "42921675700022",
            "nom": "C.J.M.ENTREPRISE GENERALE"
        }
    },
    {
        "id": 489,
        "nom": "Gaudin",
        "genre": "H",
        "prenom": "Étienne",
        "job": "CISO",
        "naissance": "1974-08-05",
        "insee": "92071",
        "code_postal": "92330",
        "commune": "Sceaux",
        "coords": {
            "lat": 48.77599144089163,
            "lng": 2.285768890854635
        }
    },
    {
        "id": 512,
        "nom": "Bousquet",
        "genre": "H",
        "prenom": "Charles",
        "job": "Scrum Master",
        "naissance": "1972-08-23",
        "insee": "92036",
        "code_postal": "92230",
        "commune": "Gennevilliers",
        "coords": {
            "lat": 48.931254066514114,
            "lng": 2.3009682498076107
        },
        "entreprise": {
            "siret": "52926406100092",
            "nom": "VILLA D'EPIDAURE"
        }
    },
    {
        "id": 517,
        "nom": "Garnier",
        "genre": "H",
        "prenom": "Martin",
        "job": "Développeur PHP",
        "naissance": "1959-09-23",
        "insee": "92047",
        "code_postal": "92430",
        "commune": "Marnes-la-Coquette",
        "coords": {
            "lat": 48.83670313094551,
            "lng": 2.1811501719818964
        },
        "entreprise": {
            "siret": "52926406100092",
            "nom": "VILLA D'EPIDAURE"
        }
    },
    {
        "id": 518,
        "nom": "Buisson",
        "genre": "F",
        "prenom": "Michelle",
        "job": "Scrum Master",
        "naissance": "1967-11-26",
        "insee": "92063",
        "code_postal": "92500",
        "commune": "Rueil-Malmaison",
        "coords": {
            "lat": 48.86286034110181,
            "lng": 2.1712734038491526
        }
    },
    {
        "id": 556,
        "nom": "Guérin",
        "genre": "F",
        "prenom": "Lucie",
        "job": "Développeur Full Stack",
        "naissance": "1959-01-04",
        "insee": "92047",
        "code_postal": "92430",
        "commune": "Marnes-la-Coquette",
        "coords": {
            "lat": 48.82685897401509,
            "lng": 2.1629530784795623
        },
        "entreprise": {
            "siret": "52926406100092",
            "nom": "VILLA D'EPIDAURE"
        }
    },
    {
        "id": 569,
        "nom": "Maillot",
        "genre": "F",
        "prenom": "Susan",
        "job": "Développeur Logiciel",
        "naissance": "1971-12-08",
        "insee": "92033",
        "code_postal": "92380",
        "commune": "Garches",
        "coords": {
            "lat": 48.84503912729607,
            "lng": 2.1968062772905084
        },
        "entreprise": {
            "siret": "52926406100092",
            "nom": "VILLA D'EPIDAURE"
        }
    },
    {
        "id": 594,
        "nom": "Gérard",
        "genre": "F",
        "prenom": "Juliette",
        "job": "Référenceur Web",
        "naissance": "1971-04-04",
        "insee": "92019",
        "code_postal": "92290",
        "commune": "Châtenay-Malabry",
        "coords": {
            "lat": 48.77849744501509,
            "lng": 2.273298080282444
        },
        "entreprise": {
            "siret": "52926406100092",
            "nom": "VILLA D'EPIDAURE"
        }
    },
    {
        "id": 608,
        "nom": "Germain",
        "genre": "F",
        "prenom": "Claire",
        "job": "Architecte Web",
        "naissance": "1977-11-28",
        "insee": "92020",
        "code_postal": "92320",
        "commune": "Châtillon",
        "coords": {
            "lat": 48.80132049091217,
            "lng": 2.275088721893721
        },
        "entreprise": {
            "siret": "52926406100092",
            "nom": "VILLA D'EPIDAURE"
        }
    },
    {
        "id": 609,
        "nom": "Faivre",
        "genre": "F",
        "prenom": "Joséphine",
        "job": "Architecte Web",
        "naissance": "1967-07-22",
        "insee": "92046",
        "code_postal": "92240",
        "commune": "Malakoff",
        "coords": {
            "lat": 48.80837207770822,
            "lng": 2.2940705676196025
        },
        "entreprise": {
            "siret": "52926406100092",
            "nom": "VILLA D'EPIDAURE"
        }
    },
    {
        "id": 622,
        "nom": "Benoit",
        "genre": "F",
        "prenom": "Michèle",
        "job": "CISO",
        "naissance": "1998-11-12",
        "insee": "92002",
        "code_postal": "92160",
        "commune": "Antony",
        "coords": {
            "lat": 48.74955912968957,
            "lng": 2.302478336688186
        },
        "entreprise": {
            "siret": "52926406100092",
            "nom": "VILLA D'EPIDAURE"
        }
    },
    {
        "id": 624,
        "nom": "Nguyen",
        "genre": "F",
        "prenom": "Michelle",
        "naissance": "1969-04-11",
        "insee": "92009",
        "code_postal": "92270",
        "commune": "Bois-Colombes",
        "coords": {
            "lat": 48.9182458811046,
            "lng": 2.267368528315392
        },
        "entreprise": {
            "siret": "93161391300017",
            "nom": "GARAGE M.S.D IMPORT EXPORT"
        }
    },
    {
        "id": 626,
        "nom": "Chevalier",
        "genre": "H",
        "prenom": "Honoré",
        "job": "Testeur QA",
        "naissance": "1976-04-03",
        "insee": "92050",
        "code_postal": "92000",
        "commune": "Nanterre",
        "coords": {
            "lat": 48.90289380896481,
            "lng": 2.214060877235214
        },
        "entreprise": {
            "siret": "52926406100092",
            "nom": "VILLA D'EPIDAURE"
        }
    },
    {
        "id": 627,
        "nom": "Jourdan",
        "genre": "F",
        "prenom": "Emmanuelle",
        "job": "CISO",
        "naissance": "2001-01-19",
        "insee": "92063",
        "code_postal": "92500",
        "commune": "Rueil-Malmaison",
        "coords": {
            "lat": 48.86588448632759,
            "lng": 2.1781890320547657
        }
    },
    {
        "id": 636,
        "nom": "Richard",
        "genre": "H",
        "prenom": "Alfred",
        "job": "Consultant CRM",
        "naissance": "2000-05-30",
        "insee": "92046",
        "code_postal": "92240",
        "commune": "Malakoff",
        "coords": {
            "lat": 48.811996846279314,
            "lng": 2.2850679486667174
        },
        "entreprise": {
            "siret": "52926406100092",
            "nom": "VILLA D'EPIDAURE"
        }
    },
    {
        "id": 687,
        "nom": "Guillon",
        "genre": "F",
        "prenom": "Anne",
        "job": "Développeur Front End",
        "naissance": "1973-07-13",
        "insee": "92022",
        "code_postal": "92370",
        "commune": "Chaville",
        "coords": {
            "lat": 48.8025642726221,
            "lng": 2.187147992365485
        }
    },
    {
        "id": 696,
        "nom": "Delahaye",
        "genre": "F",
        "prenom": "Victoire",
        "naissance": "1976-03-24",
        "insee": "92012",
        "code_postal": "92100",
        "commune": "Boulogne-Billancourt",
        "coords": {
            "lat": 48.83134126688648,
            "lng": 2.23782105866224
        }
    },
    {
        "id": 699,
        "nom": "Bourdon",
        "genre": "F",
        "prenom": "Josette",
        "job": "Scrum Master",
        "naissance": "1991-01-26",
        "insee": "92024",
        "code_postal": "92110",
        "commune": "Clichy",
        "coords": {
            "lat": 48.910102339013754,
            "lng": 2.294515558296779
        },
        "entreprise": {
            "siret": "52926406100092",
            "nom": "VILLA D'EPIDAURE"
        }
    },
    {
        "id": 717,
        "nom": "Lebreton",
        "genre": "F",
        "prenom": "Corinne",
        "job": "Consultant CRM",
        "naissance": "1994-04-30",
        "insee": "92035",
        "code_postal": "92250",
        "commune": "Garenne-Colombes",
        "coords": {
            "lat": 48.90372573278118,
            "lng": 2.246587317135125
        }
    },
    {
        "id": 719,
        "nom": "Benoit",
        "genre": "F",
        "prenom": "Élisabeth",
        "job": "Développeur Front End",
        "naissance": "1966-01-16",
        "insee": "92004",
        "code_postal": "92600",
        "commune": "Asnières-sur-Seine",
        "coords": {
            "lat": 48.91334265077703,
            "lng": 2.2904086921816984
        },
        "entreprise": {
            "siret": "52926406100092",
            "nom": "VILLA D'EPIDAURE"
        }
    },
    {
        "id": 754,
        "nom": "Étienne",
        "genre": "F",
        "prenom": "Élodie",
        "job": "Développeur Back End",
        "naissance": "1967-03-09",
        "insee": "92073",
        "code_postal": "92150",
        "commune": "Suresnes",
        "coords": {
            "lat": 48.87624039230639,
            "lng": 2.2206027753573214
        },
        "entreprise": {
            "siret": "52926406100092",
            "nom": "VILLA D'EPIDAURE"
        }
    },
    {
        "id": 766,
        "nom": "Couturier",
        "genre": "F",
        "prenom": "Monique",
        "job": "Développeur Ruby",
        "naissance": "1958-12-08",
        "insee": "92025",
        "code_postal": "92700",
        "commune": "Colombes",
        "coords": {
            "lat": 48.920681338284616,
            "lng": 2.241696032897242
        },
        "entreprise": {
            "siret": "52926406100092",
            "nom": "VILLA D'EPIDAURE"
        }
    },
    {
        "id": 767,
        "nom": "Delmas",
        "genre": "F",
        "prenom": "Élodie",
        "job": "Data Scientist",
        "naissance": "1973-09-08",
        "insee": "92060",
        "code_postal": "92350",
        "commune": "Plessis-Robinson",
        "coords": {
            "lat": 48.77809869974937,
            "lng": 2.271976103035094
        },
        "entreprise": {
            "siret": "53034274000152",
            "nom": "FONDATION DES AMIS DE L'ATELIER"
        }
    },
    {
        "id": 768,
        "nom": "Charrier",
        "genre": "F",
        "prenom": "Charlotte",
        "job": "Référenceur Web",
        "naissance": "2004-01-29",
        "insee": "92022",
        "code_postal": "92370",
        "commune": "Chaville",
        "coords": {
            "lat": 48.80916901239675,
            "lng": 2.196308822169541
        }
    },
    {
        "id": 785,
        "nom": "Guillet",
        "genre": "F",
        "prenom": "Simone",
        "job": "Lead Developer",
        "naissance": "1997-07-20",
        "insee": "92025",
        "code_postal": "92700",
        "commune": "Colombes",
        "coords": {
            "lat": 48.924174991137086,
            "lng": 2.2373352867765486
        },
        "entreprise": {
            "siret": "52926406100092",
            "nom": "VILLA D'EPIDAURE"
        }
    },
    {
        "id": 819,
        "nom": "Fernandez",
        "genre": "F",
        "prenom": "Christelle",
        "job": "Développeur web",
        "naissance": "1967-06-25",
        "insee": "92023",
        "code_postal": "92140",
        "commune": "Clamart",
        "coords": {
            "lat": 48.797309200177466,
            "lng": 2.2413151220494547
        },
        "entreprise": {
            "siret": "89862065300011",
            "nom": "SOCRATE PRODUCTIONS"
        }
    },
    {
        "id": 837,
        "nom": "Nguyen",
        "genre": "H",
        "prenom": "Louis",
        "job": "Consultant CRM",
        "naissance": "1967-01-25",
        "insee": "92048",
        "code_postal": "92360",
        "commune": "Meudon",
        "coords": {
            "lat": 48.80206171923251,
            "lng": 2.234246364649526
        },
        "entreprise": {
            "siret": "89862065300011",
            "nom": "SOCRATE PRODUCTIONS"
        }
    },
    {
        "id": 847,
        "nom": "Maréchal",
        "genre": "H",
        "prenom": "Laurent",
        "job": "Data Scientist",
        "naissance": "1980-07-01",
        "insee": "92072",
        "code_postal": "92310",
        "commune": "Sèvres",
        "coords": {
            "lat": 48.827999315881115,
            "lng": 2.21818008268226
        },
        "entreprise": {
            "siret": "89862065300011",
            "nom": "SOCRATE PRODUCTIONS"
        }
    },
    {
        "id": 848,
        "nom": "Jacquot",
        "genre": "H",
        "prenom": "Georges",
        "job": "Développeur .NET",
        "naissance": "1972-03-18",
        "insee": "92026",
        "code_postal": "92400",
        "commune": "Courbevoie",
        "coords": {
            "lat": 48.89281036300049,
            "lng": 2.257819709246074
        },
        "entreprise": {
            "siret": "89862065300011",
            "nom": "SOCRATE PRODUCTIONS"
        }
    },
    {
        "id": 849,
        "nom": "Collin",
        "genre": "H",
        "prenom": "Franck",
        "job": "Directeur Technique",
        "naissance": "1999-10-31",
        "insee": "92072",
        "code_postal": "92310",
        "commune": "Sèvres",
        "coords": {
            "lat": 48.82015164986269,
            "lng": 2.208830850039046
        },
        "entreprise": {
            "siret": "89862065300011",
            "nom": "SOCRATE PRODUCTIONS"
        }
    },
    {
        "id": 881,
        "nom": "Teixeira",
        "genre": "H",
        "prenom": "Aimé",
        "job": "Développeur iOS",
        "naissance": "1979-10-31",
        "insee": "92012",
        "code_postal": "92100",
        "commune": "Boulogne-Billancourt",
        "coords": {
            "lat": 48.83451954083037,
            "lng": 2.2318086246026843
        },
        "entreprise": {
            "siret": "81055792600054",
            "nom": "SIDEXIA"
        }
    },
    {
        "id": 889,
        "nom": "Cordier",
        "genre": "F",
        "prenom": "Valérie",
        "job": "Développeur Logiciel",
        "naissance": "1960-05-25",
        "insee": "92023",
        "code_postal": "92140",
        "commune": "Clamart",
        "coords": {
            "lat": 48.78689070219449,
            "lng": 2.244820118805804
        }
    },
    {
        "id": 899,
        "nom": "Gonzalez",
        "genre": "F",
        "prenom": "Zoé",
        "job": "Ingénieur QA",
        "naissance": "1956-10-19",
        "insee": "92044",
        "code_postal": "92300",
        "commune": "Levallois-Perret",
        "coords": {
            "lat": 48.889748283410825,
            "lng": 2.2791226638795705
        },
        "entreprise": {
            "siret": "89862065300011",
            "nom": "SOCRATE PRODUCTIONS"
        }
    },
    {
        "id": 900,
        "nom": "Georges",
        "genre": "F",
        "prenom": "Christelle",
        "job": "Testeur QA",
        "naissance": "1965-07-24",
        "insee": "92007",
        "code_postal": "92220",
        "commune": "Bagneux",
        "coords": {
            "lat": 48.804568667580405,
            "lng": 2.3103492189725716
        },
        "entreprise": {
            "siret": "89862065300011",
            "nom": "SOCRATE PRODUCTIONS"
        }
    },
    {
        "id": 902,
        "nom": "Boucher",
        "genre": "F",
        "prenom": "Claudine",
        "job": "Référenceur Web",
        "naissance": "1957-02-04",
        "insee": "92076",
        "code_postal": "92420",
        "commune": "Vaucresson",
        "coords": {
            "lat": 48.83991849240704,
            "lng": 2.168063860606722
        }
    },
    {
        "id": 919,
        "nom": "Denis",
        "genre": "F",
        "prenom": "Luce",
        "job": "Développeur Ruby",
        "naissance": "1978-02-28",
        "insee": "92002",
        "code_postal": "92160",
        "commune": "Antony",
        "coords": {
            "lat": 48.746137795616214,
            "lng": 2.3070966094471874
        },
        "entreprise": {
            "siret": "89862065300011",
            "nom": "SOCRATE PRODUCTIONS"
        }
    },
    {
        "id": 952,
        "nom": "Fernandez",
        "genre": "F",
        "prenom": "Lucie",
        "job": "Développeur Android",
        "naissance": "1999-05-05",
        "insee": "92024",
        "code_postal": "92110",
        "commune": "Clichy",
        "coords": {
            "lat": 48.90312891373436,
            "lng": 2.3153219346541922
        },
        "entreprise": {
            "siret": "89862065300011",
            "nom": "SOCRATE PRODUCTIONS"
        }
    },
    {
        "id": 966,
        "nom": "Imbert",
        "genre": "F",
        "prenom": "Josette",
        "naissance": "1982-11-08",
        "insee": "92019",
        "code_postal": "92290",
        "commune": "Châtenay-Malabry",
        "coords": {
            "lat": 48.767244400529904,
            "lng": 2.2735434539417145
        },
        "entreprise": {
            "siret": "91374879400025",
            "nom": "BASILIC & CO"
        }
    },
    {
        "id": 976,
        "nom": "Jourdan",
        "genre": "F",
        "prenom": "Michelle",
        "job": "Développeur Front End",
        "naissance": "1982-02-16",
        "insee": "92050",
        "code_postal": "92000",
        "commune": "Nanterre",
        "coords": {
            "lat": 48.90483647585487,
            "lng": 2.213464176471298
        },
        "entreprise": {
            "siret": "47872562505732",
            "nom": "GIFI"
        }
    },
    {
        "id": 978,
        "nom": "Thibault",
        "genre": "F",
        "prenom": "Alexandria",
        "job": "Data Manager",
        "naissance": "1995-08-15",
        "insee": "92035",
        "code_postal": "92250",
        "commune": "Garenne-Colombes",
        "coords": {
            "lat": 48.91094768284137,
            "lng": 2.23434702999039
        },
        "entreprise": {
            "siret": "89862065300011",
            "nom": "SOCRATE PRODUCTIONS"
        }
    },
    {
        "id": 979,
        "nom": "Martinez",
        "genre": "F",
        "prenom": "Lorraine",
        "job": "Lead Developer",
        "naissance": "1983-01-12",
        "insee": "92062",
        "code_postal": "92800",
        "commune": "Puteaux",
        "coords": {
            "lat": 48.8735761698904,
            "lng": 2.2375467428797444
        },
        "entreprise": {
            "siret": "89862065300011",
            "nom": "SOCRATE PRODUCTIONS"
        }
    },
    {
        "id": 983,
        "nom": "Guérin",
        "genre": "F",
        "prenom": "Andrée",
        "job": "Développeur .NET",
        "naissance": "1969-07-05",
        "insee": "92022",
        "code_postal": "92370",
        "commune": "Chaville",
        "coords": {
            "lat": 48.80228429269073,
            "lng": 2.1922084697600344
        },
        "entreprise": {
            "siret": "89862065300011",
            "nom": "SOCRATE PRODUCTIONS"
        }
    },
    {
        "id": 1040,
        "nom": "Chauvet",
        "genre": "F",
        "prenom": "Marine",
        "job": "CISO",
        "naissance": "2002-01-22",
        "insee": "92022",
        "code_postal": "92370",
        "commune": "Chaville",
        "coords": {
            "lat": 48.80228804332634,
            "lng": 2.1779330658721
        }
    },
    {
        "id": 1044,
        "nom": "Lecomte",
        "genre": "F",
        "prenom": "Camille",
        "job": "Développeur Back End",
        "naissance": "1960-10-26",
        "insee": "92044",
        "code_postal": "92300",
        "commune": "Levallois-Perret",
        "coords": {
            "lat": 48.89997600973521,
            "lng": 2.278419058090594
        },
        "entreprise": {
            "siret": "89862065300011",
            "nom": "SOCRATE PRODUCTIONS"
        }
    },
    {
        "id": 1079,
        "nom": "Guichard",
        "genre": "F",
        "prenom": "Michelle",
        "job": "Architecte Web",
        "naissance": "1980-02-12",
        "insee": "92063",
        "code_postal": "92500",
        "commune": "Rueil-Malmaison",
        "coords": {
            "lat": 48.864015948038855,
            "lng": 2.1797836399461246
        }
    },
    {
        "id": 1085,
        "nom": "Boulanger",
        "genre": "H",
        "prenom": "Paul",
        "job": "Data Scientist",
        "naissance": "1974-04-21",
        "insee": "92075",
        "code_postal": "92170",
        "commune": "Vanves",
        "coords": {
            "lat": 48.82014771091048,
            "lng": 2.2864880010454884
        }
    },
    {
        "id": 1140,
        "nom": "Vasseur",
        "genre": "F",
        "prenom": "Adrienne",
        "job": "Développeur Android",
        "naissance": "1986-06-22",
        "insee": "92050",
        "code_postal": "92000",
        "commune": "Nanterre",
        "coords": {
            "lat": 48.89110421164376,
            "lng": 2.2048908642008342
        }
    },
    {
        "id": 1181,
        "nom": "Noël",
        "genre": "F",
        "prenom": "Marine",
        "job": "Ingénieur QA",
        "naissance": "1982-03-11",
        "insee": "92019",
        "code_postal": "92290",
        "commune": "Châtenay-Malabry",
        "coords": {
            "lat": 48.76387079496866,
            "lng": 2.247969774817837
        },
        "entreprise": {
            "siret": "89862065300011",
            "nom": "SOCRATE PRODUCTIONS"
        }
    },
    {
        "id": 1241,
        "nom": "Gérard",
        "genre": "F",
        "prenom": "Monique",
        "job": "Développeur PHP",
        "naissance": "1961-03-19",
        "insee": "92051",
        "code_postal": "92200",
        "commune": "Neuilly-sur-Seine",
        "coords": {
            "lat": 48.880221945074396,
            "lng": 2.2583997277582317
        }
    },
    {
        "id": 1295,
        "nom": "Pascal",
        "genre": "F",
        "prenom": "Audrey",
        "job": "Développeur Back End",
        "naissance": "1957-05-08",
        "insee": "92046",
        "code_postal": "92240",
        "commune": "Malakoff",
        "coords": {
            "lat": 48.82136962991427,
            "lng": 2.306453961974098
        },
        "entreprise": {
            "siret": "89862065300011",
            "nom": "SOCRATE PRODUCTIONS"
        }
    },
    {
        "id": 1296,
        "nom": "Michaud",
        "genre": "H",
        "prenom": "Bertrand",
        "job": "CRM Manager",
        "naissance": "1990-05-28",
        "insee": "92044",
        "code_postal": "92300",
        "commune": "Levallois-Perret",
        "coords": {
            "lat": 48.89445724603291,
            "lng": 2.2816939513907912
        },
        "entreprise": {
            "siret": "89862065300011",
            "nom": "SOCRATE PRODUCTIONS"
        }
    },
    {
        "id": 1299,
        "nom": "Pinto",
        "genre": "F",
        "prenom": "Claire",
        "job": "Développeur Mobile",
        "naissance": "1988-12-27",
        "insee": "92033",
        "code_postal": "92380",
        "commune": "Garches",
        "coords": {
            "lat": 48.84122925711829,
            "lng": 2.192039917887632
        }
    },
    {
        "id": 1309,
        "nom": "Lévy",
        "genre": "H",
        "prenom": "Matthieu",
        "naissance": "1957-09-03",
        "insee": "92025",
        "code_postal": "92700",
        "commune": "Colombes",
        "coords": {
            "lat": 48.925966606911274,
            "lng": 2.2521021185199337
        },
        "entreprise": {
            "siret": "89862065300011",
            "nom": "SOCRATE PRODUCTIONS"
        }
    },
    {
        "id": 1326,
        "nom": "Royer",
        "genre": "H",
        "prenom": "Alain",
        "job": "Data Manager",
        "naissance": "2007-01-08",
        "insee": "92019",
        "code_postal": "92290",
        "commune": "Châtenay-Malabry",
        "coords": {
            "lat": 48.761173832223044,
            "lng": 2.2619829889027643
        }
    },
    {
        "id": 1398,
        "nom": "Gautier",
        "genre": "F",
        "prenom": "Brigitte",
        "job": "CISO",
        "naissance": "1962-07-12",
        "insee": "92051",
        "code_postal": "92200",
        "commune": "Neuilly-sur-Seine",
        "coords": {
            "lat": 48.893125020859685,
            "lng": 2.2540239148044763
        }
    },
    {
        "id": 1408,
        "nom": "Vasseur",
        "genre": "F",
        "prenom": "Marcelle",
        "job": "Développeur Back End",
        "naissance": "1996-04-17",
        "insee": "92025",
        "code_postal": "92700",
        "commune": "Colombes",
        "coords": {
            "lat": 48.92443468039584,
            "lng": 2.2523604422669172
        }
    },
    {
        "id": 1436,
        "nom": "Ribeiro",
        "genre": "F",
        "prenom": "Madeleine",
        "job": "CISO",
        "naissance": "1986-09-25",
        "insee": "92044",
        "code_postal": "92300",
        "commune": "Levallois-Perret",
        "coords": {
            "lat": 48.88880602778196,
            "lng": 2.287261776465416
        },
        "entreprise": {
            "siret": "89862065300011",
            "nom": "SOCRATE PRODUCTIONS"
        }
    },
    {
        "id": 1439,
        "nom": "Courtois",
        "genre": "F",
        "prenom": "Agnès",
        "job": "Développeur Ruby",
        "naissance": "1977-12-21",
        "insee": "92044",
        "code_postal": "92300",
        "commune": "Levallois-Perret",
        "coords": {
            "lat": 48.900564727676674,
            "lng": 2.2953771904711187
        }
    },
    {
        "id": 1465,
        "nom": "Jacob",
        "genre": "H",
        "prenom": "Adrien",
        "job": "Développeur Full Stack",
        "naissance": "1988-03-17",
        "insee": "92023",
        "code_postal": "92140",
        "commune": "Clamart",
        "coords": {
            "lat": 48.79092389715163,
            "lng": 2.262026134905463
        },
        "entreprise": {
            "siret": "89862065300011",
            "nom": "SOCRATE PRODUCTIONS"
        }
    },
    {
        "id": 1466,
        "nom": "Duval",
        "genre": "F",
        "prenom": "Marguerite",
        "job": "Directeur Technique",
        "naissance": "1983-02-21",
        "insee": "92040",
        "code_postal": "92130",
        "commune": "Issy-les-Moulineaux",
        "coords": {
            "lat": 48.8301491325332,
            "lng": 2.254754410541357
        }
    },
    {
        "id": 1477,
        "nom": "Breton",
        "genre": "H",
        "prenom": "Michel",
        "job": "Développeur Logiciel",
        "naissance": "2003-05-25",
        "insee": "92022",
        "code_postal": "92370",
        "commune": "Chaville",
        "coords": {
            "lat": 48.809964542144094,
            "lng": 2.1855873626228446
        }
    },
    {
        "id": 1483,
        "nom": "Boyer",
        "genre": "H",
        "prenom": "Patrick",
        "job": "CRM Manager",
        "naissance": "1960-01-25",
        "insee": "92019",
        "code_postal": "92290",
        "commune": "Châtenay-Malabry",
        "coords": {
            "lat": 48.77269801673429,
            "lng": 2.2609182636245335
        },
        "entreprise": {
            "siret": "89862065300011",
            "nom": "SOCRATE PRODUCTIONS"
        }
    },
    {
        "id": 1498,
        "nom": "Imbert",
        "genre": "F",
        "prenom": "Suzanne",
        "job": "Référenceur Web",
        "naissance": "1970-08-31",
        "insee": "92023",
        "code_postal": "92140",
        "commune": "Clamart",
        "coords": {
            "lat": 48.79903070363986,
            "lng": 2.2462930982158076
        }
    },
    {
        "id": 1499,
        "nom": "Rivière",
        "genre": "F",
        "prenom": "Colette",
        "job": "Chef de Projet Technique",
        "naissance": "1994-11-06",
        "insee": "92019",
        "code_postal": "92290",
        "commune": "Châtenay-Malabry",
        "coords": {
            "lat": 48.76546768570353,
            "lng": 2.266248795977408
        }
    },
    {
        "id": 1576,
        "nom": "Guérin",
        "genre": "F",
        "prenom": "Margot",
        "job": "Architecte Web",
        "naissance": "1990-08-04",
        "insee": "92051",
        "code_postal": "92200",
        "commune": "Neuilly-sur-Seine",
        "coords": {
            "lat": 48.890168721902484,
            "lng": 2.2751437216103754
        }
    },
    {
        "id": 1662,
        "nom": "Brunet",
        "genre": "H",
        "prenom": "Sébastien",
        "job": "UI Designer",
        "naissance": "1990-07-03",
        "insee": "92007",
        "code_postal": "92220",
        "commune": "Bagneux",
        "coords": {
            "lat": 48.798005074865834,
            "lng": 2.3074219486023004
        },
        "entreprise": {
            "siret": "89862065300011",
            "nom": "SOCRATE PRODUCTIONS"
        }
    },
    {
        "id": 1673,
        "nom": "Collet",
        "genre": "F",
        "prenom": "Paulette",
        "job": "Développeur PHP",
        "naissance": "1996-07-12",
        "insee": "92072",
        "code_postal": "92310",
        "commune": "Sèvres",
        "coords": {
            "lat": 48.82225674422721,
            "lng": 2.194668496350178
        },
        "entreprise": {
            "siret": "89862065300011",
            "nom": "SOCRATE PRODUCTIONS"
        }
    },
    {
        "id": 1674,
        "nom": "Nicolas",
        "genre": "F",
        "prenom": "Monique",
        "job": "Lead Developer",
        "naissance": "1996-11-11",
        "insee": "92049",
        "code_postal": "92120",
        "commune": "Montrouge",
        "coords": {
            "lat": 48.815651288056834,
            "lng": 2.327530501023357
        },
        "entreprise": {
            "siret": "51488696900013",
            "nom": "BIGEM"
        }
    },
    {
        "id": 1676,
        "nom": "Camus",
        "genre": "F",
        "prenom": "Odette",
        "job": "Développeur .NET",
        "naissance": "1976-09-27",
        "insee": "92019",
        "code_postal": "92290",
        "commune": "Châtenay-Malabry",
        "coords": {
            "lat": 48.76789496640707,
            "lng": 2.2714059001396545
        },
        "entreprise": {
            "siret": "51488696900013",
            "nom": "BIGEM"
        }
    },
    {
        "id": 1739,
        "nom": "Ledoux",
        "genre": "H",
        "prenom": "Yves",
        "job": "Responsable Web Marketing",
        "naissance": "1968-12-02",
        "insee": "92051",
        "code_postal": "92200",
        "commune": "Neuilly-sur-Seine",
        "coords": {
            "lat": 48.89183580227236,
            "lng": 2.258739026334298
        },
        "entreprise": {
            "siret": "51488696900013",
            "nom": "BIGEM"
        }
    },
    {
        "id": 1824,
        "nom": "Dupuis",
        "genre": "F",
        "prenom": "Camille",
        "job": "Développeur iOS",
        "naissance": "1993-06-03",
        "insee": "92077",
        "code_postal": "92410",
        "commune": "Ville-d'Avray",
        "coords": {
            "lat": 48.82400727424602,
            "lng": 2.188836899871583
        },
        "entreprise": {
            "siret": "51488696900013",
            "nom": "BIGEM"
        }
    },
    {
        "id": 1825,
        "nom": "Marion",
        "genre": "F",
        "prenom": "Christelle",
        "job": "Directeur Technique",
        "naissance": "1995-05-08",
        "insee": "92048",
        "code_postal": "92190",
        "commune": "Meudon",
        "coords": {
            "lat": 48.808451006521075,
            "lng": 2.2366735439895353
        },
        "entreprise": {
            "siret": "50420315900026",
            "nom": "COULEURS VOCALES"
        }
    },
    {
        "id": 1925,
        "nom": "Louis",
        "genre": "F",
        "prenom": "Margot",
        "job": "Développeur iOS",
        "naissance": "1998-06-10",
        "insee": "92032",
        "code_postal": "92260",
        "commune": "Fontenay-aux-Roses",
        "coords": {
            "lat": 48.797300168903874,
            "lng": 2.281155129578795
        },
        "entreprise": {
            "siret": "51488696900013",
            "nom": "BIGEM"
        }
    },
    {
        "id": 1930,
        "nom": "Descamps",
        "genre": "F",
        "prenom": "Margaud",
        "job": "Développeur Full Stack",
        "naissance": "1979-09-17",
        "insee": "92076",
        "code_postal": "92420",
        "commune": "Vaucresson",
        "coords": {
            "lat": 48.83660233523957,
            "lng": 2.1751514397860205
        },
        "entreprise": {
            "siret": "31213919900011",
            "nom": "MEDECINE URGENCE"
        }
    },
    {
        "id": 1963,
        "nom": "Lecomte",
        "genre": "F",
        "prenom": "Capucine",
        "job": "Développeur Logiciel",
        "naissance": "1998-08-20",
        "insee": "92020",
        "code_postal": "92320",
        "commune": "Châtillon",
        "coords": {
            "lat": 48.804654284514726,
            "lng": 2.295596846479993
        },
        "entreprise": {
            "siret": "51488696900013",
            "nom": "BIGEM"
        }
    },
    {
        "id": 1964,
        "nom": "Chrétien",
        "genre": "H",
        "prenom": "Rémy",
        "job": "Responsable Web Marketing",
        "naissance": "1979-07-21",
        "insee": "92076",
        "code_postal": "92420",
        "commune": "Vaucresson",
        "coords": {
            "lat": 48.83521309383099,
            "lng": 2.1746574401341014
        },
        "entreprise": {
            "siret": "31213919900011",
            "nom": "MEDECINE URGENCE"
        }
    },
    {
        "id": 1983,
        "nom": "Besnard",
        "genre": "F",
        "prenom": "Renée",
        "job": "Développeur PHP",
        "naissance": "1974-03-21",
        "insee": "92063",
        "code_postal": "92500",
        "commune": "Rueil-Malmaison",
        "coords": {
            "lat": 48.869113401239574,
            "lng": 2.181622357894536
        },
        "entreprise": {
            "siret": "51488696900013",
            "nom": "BIGEM"
        }
    },
    {
        "id": 1984,
        "nom": "Nguyen",
        "genre": "F",
        "prenom": "Anastasie",
        "job": "Développeur Python",
        "naissance": "1965-07-27",
        "insee": "92073",
        "code_postal": "92150",
        "commune": "Suresnes",
        "coords": {
            "lat": 48.8748430114063,
            "lng": 2.229750923580633
        }
    },
    {
        "id": 2050,
        "nom": "Rivière",
        "genre": "H",
        "prenom": "Gérard",
        "job": "Chef de Projet Technique",
        "naissance": "1955-07-10",
        "insee": "92047",
        "code_postal": "92430",
        "commune": "Marnes-la-Coquette",
        "coords": {
            "lat": 48.83273545016506,
            "lng": 2.1733374199892608
        },
        "entreprise": {
            "siret": "51488696900013",
            "nom": "BIGEM"
        }
    },
    {
        "id": 2053,
        "nom": "Roux",
        "genre": "F",
        "prenom": "Josette",
        "job": "Développeur web",
        "naissance": "2000-05-20",
        "insee": "92026",
        "code_postal": "92400",
        "commune": "Courbevoie",
        "coords": {
            "lat": 48.88934859810541,
            "lng": 2.2488677383277045
        }
    },
    {
        "id": 2064,
        "nom": "Étienne",
        "genre": "F",
        "prenom": "Pénélope",
        "job": "CRM Manager",
        "naissance": "1975-04-25",
        "insee": "92047",
        "code_postal": "92430",
        "commune": "Marnes-la-Coquette",
        "coords": {
            "lat": 48.82151326257336,
            "lng": 2.1788259653082056
        },
        "entreprise": {
            "siret": "77572987400245",
            "nom": "LES PAPILLONS BLANCS DE LA COLLINE"
        }
    },
    {
        "id": 2078,
        "nom": "Lambert",
        "genre": "F",
        "prenom": "Agathe",
        "job": "UI Designer",
        "naissance": "1956-06-15",
        "insee": "92073",
        "code_postal": "92150",
        "commune": "Suresnes",
        "coords": {
            "lat": 48.87758763965162,
            "lng": 2.2307313029955504
        },
        "entreprise": {
            "siret": "51488696900013",
            "nom": "BIGEM"
        }
    },
    {
        "id": 2096,
        "nom": "Allard",
        "genre": "F",
        "prenom": "Margot",
        "job": "Développeur PHP",
        "naissance": "1991-08-26",
        "insee": "92064",
        "code_postal": "92210",
        "commune": "Saint-Cloud",
        "coords": {
            "lat": 48.838429064149686,
            "lng": 2.193574259653738
        },
        "entreprise": {
            "siret": "51488696900013",
            "nom": "BIGEM"
        }
    },
    {
        "id": 2145,
        "nom": "Lebrun",
        "genre": "F",
        "prenom": "Diane",
        "job": "Développeur iOS",
        "naissance": "2006-05-07",
        "insee": "92047",
        "code_postal": "92430",
        "commune": "Marnes-la-Coquette",
        "coords": {
            "lat": 48.82686448901661,
            "lng": 2.1552593715581514
        },
        "entreprise": {
            "siret": "51488696900013",
            "nom": "BIGEM"
        }
    },
    {
        "id": 2161,
        "nom": "Pelletier",
        "genre": "F",
        "prenom": "Margaud",
        "naissance": "1986-05-15",
        "insee": "92051",
        "code_postal": "92200",
        "commune": "Neuilly-sur-Seine",
        "coords": {
            "lat": 48.895186280132584,
            "lng": 2.2600320378792165
        }
    },
    {
        "id": 2353,
        "nom": "Da Costa",
        "genre": "H",
        "prenom": "Sébastien",
        "job": "Responsable Web Marketing",
        "naissance": "1978-03-28",
        "insee": "92014",
        "code_postal": "92340",
        "commune": "Bourg-la-Reine",
        "coords": {
            "lat": 48.77872689597277,
            "lng": 2.3244832761488765
        },
        "entreprise": {
            "siret": "51488696900013",
            "nom": "BIGEM"
        }
    },
    {
        "id": 2423,
        "nom": "Cohen",
        "genre": "F",
        "prenom": "Cécile",
        "job": "Scrum Master",
        "naissance": "1961-11-23",
        "insee": "92077",
        "code_postal": "92410",
        "commune": "Ville-d'Avray",
        "coords": {
            "lat": 48.82444962974135,
            "lng": 2.171535595653347
        },
        "entreprise": {
            "siret": "77572987400245",
            "nom": "LES PAPILLONS BLANCS DE LA COLLINE"
        }
    },
    {
        "id": 2501,
        "nom": "Dos Santos",
        "genre": "H",
        "prenom": "Michel",
        "job": "Directeur Technique",
        "naissance": "1981-08-12",
        "insee": "92071",
        "code_postal": "92330",
        "commune": "Sceaux",
        "coords": {
            "lat": 48.77536351743602,
            "lng": 2.3084507235976055
        },
        "entreprise": {
            "siret": "51488696900013",
            "nom": "BIGEM"
        }
    },
    {
        "id": 2504,
        "nom": "Wagner",
        "genre": "F",
        "prenom": "Simone",
        "job": "Lead Developer",
        "naissance": "2002-12-09",
        "insee": "92049",
        "code_postal": "92120",
        "commune": "Montrouge",
        "coords": {
            "lat": 48.822781648481715,
            "lng": 2.306292500389388
        },
        "entreprise": {
            "siret": "51488696900013",
            "nom": "BIGEM"
        }
    },
    {
        "id": 2505,
        "nom": "Robert",
        "genre": "F",
        "prenom": "Adèle",
        "job": "Testeur QA",
        "naissance": "1964-03-24",
        "insee": "92044",
        "code_postal": "92300",
        "commune": "Levallois-Perret",
        "coords": {
            "lat": 48.89422350311964,
            "lng": 2.3009695566971713
        },
        "entreprise": {
            "siret": "93306244000013",
            "nom": "AFA CONTROLE"
        }
    },
    {
        "id": 2555,
        "nom": "Mallet",
        "genre": "F",
        "prenom": "Noémi",
        "job": "Scrum Master",
        "naissance": "1960-05-24",
        "insee": "92051",
        "code_postal": "92200",
        "commune": "Neuilly-sur-Seine",
        "coords": {
            "lat": 48.88008108151057,
            "lng": 2.258815026125516
        },
        "entreprise": {
            "siret": "51488696900013",
            "nom": "BIGEM"
        }
    },
    {
        "id": 2558,
        "nom": "Olivier",
        "genre": "F",
        "prenom": "Émilie",
        "job": "Scrum Master",
        "naissance": "1962-07-17",
        "insee": "92050",
        "code_postal": "92000",
        "commune": "Nanterre",
        "coords": {
            "lat": 48.89807087297266,
            "lng": 2.195793836386407
        }
    },
    {
        "id": 2563,
        "nom": "Moreau",
        "genre": "F",
        "prenom": "Suzanne",
        "job": "Growth Hacker",
        "naissance": "1972-03-27",
        "insee": "92051",
        "code_postal": "92200",
        "commune": "Neuilly-sur-Seine",
        "coords": {
            "lat": 48.893428347031985,
            "lng": 2.2769603719287463
        },
        "entreprise": {
            "siret": "51149003900043",
            "nom": "IDZ PROD"
        }
    },
    {
        "id": 2609,
        "nom": "Ollivier",
        "genre": "F",
        "prenom": "Geneviève",
        "job": "Scrum Master",
        "naissance": "2005-04-03",
        "insee": "92075",
        "code_postal": "92170",
        "commune": "Vanves",
        "coords": {
            "lat": 48.82005534366689,
            "lng": 2.285418531801664
        },
        "entreprise": {
            "siret": "51488696900013",
            "nom": "BIGEM"
        }
    },
    {
        "id": 2824,
        "nom": "Bonnin",
        "genre": "H",
        "prenom": "Jules",
        "job": "CRM Manager",
        "naissance": "1968-10-25",
        "insee": "92032",
        "code_postal": "92260",
        "commune": "Fontenay-aux-Roses",
        "coords": {
            "lat": 48.7933329451567,
            "lng": 2.300315920696219
        }
    },
    {
        "id": 2875,
        "nom": "Chauveau",
        "genre": "H",
        "prenom": "Maurice",
        "job": "Développeur Mobile",
        "naissance": "1979-08-20",
        "insee": "92064",
        "code_postal": "92210",
        "commune": "Saint-Cloud",
        "coords": {
            "lat": 48.835408590966445,
            "lng": 2.215175628397953
        }
    },
    {
        "id": 2877,
        "nom": "Giraud",
        "genre": "F",
        "prenom": "Caroline",
        "job": "CISO",
        "naissance": "1968-02-11",
        "insee": "92020",
        "code_postal": "92320",
        "commune": "Châtillon",
        "coords": {
            "lat": 48.8056771831938,
            "lng": 2.29489823818308
        },
        "entreprise": {
            "siret": "51488696900013",
            "nom": "BIGEM"
        }
    },
    {
        "id": 2912,
        "nom": "Menard",
        "genre": "F",
        "prenom": "Marcelle",
        "job": "Développeur web",
        "naissance": "1960-07-15",
        "insee": "92007",
        "code_postal": "92220",
        "commune": "Bagneux",
        "coords": {
            "lat": 48.79996862147273,
            "lng": 2.3188490408317604
        },
        "entreprise": {
            "siret": "51488696900013",
            "nom": "BIGEM"
        }
    },
    {
        "id": 3052,
        "nom": "Blondel",
        "genre": "F",
        "prenom": "Joséphine",
        "job": "Développeur Ruby",
        "naissance": "1972-01-12",
        "insee": "92026",
        "code_postal": "92400",
        "commune": "Courbevoie",
        "coords": {
            "lat": 48.90060194631388,
            "lng": 2.2502450064040715
        },
        "entreprise": {
            "siret": "51488696900013",
            "nom": "BIGEM"
        }
    },
    {
        "id": 3082,
        "nom": "Bertin",
        "genre": "H",
        "prenom": "Pierre",
        "job": "Développeur Mobile",
        "naissance": "1975-07-20",
        "insee": "92064",
        "code_postal": "92210",
        "commune": "Saint-Cloud",
        "coords": {
            "lat": 48.83689139470865,
            "lng": 2.205247777832451
        }
    },
    {
        "id": 3155,
        "nom": "Sauvage",
        "genre": "F",
        "prenom": "Juliette",
        "job": "Data Scientist",
        "naissance": "1994-03-05",
        "insee": "92020",
        "code_postal": "92320",
        "commune": "Châtillon",
        "coords": {
            "lat": 48.800215610227,
            "lng": 2.2932786670379834
        }
    },
    {
        "id": 3173,
        "nom": "Buisson",
        "genre": "F",
        "prenom": "Frédérique",
        "naissance": "1966-04-24",
        "insee": "92075",
        "code_postal": "92170",
        "commune": "Vanves",
        "coords": {
            "lat": 48.818502271853205,
            "lng": 2.282300344244267
        },
        "entreprise": {
            "siret": "51488696900013",
            "nom": "BIGEM"
        }
    },
    {
        "id": 3247,
        "nom": "David",
        "genre": "F",
        "prenom": "Martine",
        "job": "Data Scientist",
        "naissance": "1961-02-19",
        "insee": "92035",
        "code_postal": "92250",
        "commune": "Garenne-Colombes",
        "coords": {
            "lat": 48.91112003844092,
            "lng": 2.243298933524847
        },
        "entreprise": {
            "siret": "51488696900013",
            "nom": "BIGEM"
        }
    },
    {
        "id": 3317,
        "nom": "Fournier",
        "genre": "F",
        "prenom": "Élisabeth",
        "job": "Data Scientist",
        "naissance": "1973-08-26",
        "insee": "92036",
        "code_postal": "92230",
        "commune": "Gennevilliers",
        "coords": {
            "lat": 48.94010647410575,
            "lng": 2.2788069194767275
        }
    },
    {
        "id": 3338,
        "nom": "Millet",
        "genre": "F",
        "prenom": "Henriette",
        "job": "Lead Developer",
        "naissance": "1966-02-19",
        "insee": "92012",
        "code_postal": "92100",
        "commune": "Boulogne-Billancourt",
        "coords": {
            "lat": 48.83393790592192,
            "lng": 2.2390232487180235
        },
        "entreprise": {
            "siret": "51488696900013",
            "nom": "BIGEM"
        }
    },
    {
        "id": 3351,
        "nom": "Roger",
        "genre": "H",
        "prenom": "Édouard",
        "job": "CRM Manager",
        "naissance": "1999-03-03",
        "insee": "92019",
        "code_postal": "92290",
        "commune": "Châtenay-Malabry",
        "coords": {
            "lat": 48.76552194164587,
            "lng": 2.2556743943001725
        },
        "entreprise": {
            "siret": "51488696900013",
            "nom": "BIGEM"
        }
    },
    {
        "id": 3403,
        "nom": "Bruneau",
        "genre": "H",
        "prenom": "Thibaut",
        "job": "Développeur .NET",
        "naissance": "1987-05-24",
        "insee": "92046",
        "code_postal": "92240",
        "commune": "Malakoff",
        "coords": {
            "lat": 48.816171090691974,
            "lng": 2.30405411933162
        }
    },
    {
        "id": 3407,
        "nom": "Camus",
        "genre": "F",
        "prenom": "Alexandria",
        "job": "Développeur Java",
        "naissance": "1992-04-05",
        "insee": "92033",
        "code_postal": "92380",
        "commune": "Garches",
        "coords": {
            "lat": 48.84128682416344,
            "lng": 2.191383675208143
        }
    },
    {
        "id": 3464,
        "nom": "Guibert",
        "genre": "F",
        "prenom": "Suzanne",
        "job": "Lead Developer",
        "naissance": "1976-08-04",
        "insee": "92022",
        "code_postal": "92370",
        "commune": "Chaville",
        "coords": {
            "lat": 48.81626926878449,
            "lng": 2.1997288998444784
        },
        "entreprise": {
            "siret": "81246296800015",
            "nom": "SINA DECORE"
        }
    },
    {
        "id": 3513,
        "nom": "Daniel",
        "genre": "F",
        "prenom": "Suzanne",
        "job": "Data Scientist",
        "naissance": "1985-06-14",
        "insee": "92022",
        "code_postal": "92370",
        "commune": "Chaville",
        "coords": {
            "lat": 48.81012172157268,
            "lng": 2.1892984881732005
        },
        "entreprise": {
            "siret": "81246296800015",
            "nom": "SINA DECORE"
        }
    },
    {
        "id": 3589,
        "nom": "Boyer",
        "genre": "F",
        "prenom": "Alexandrie",
        "job": "Développeur PHP",
        "naissance": "1959-11-11",
        "insee": "92064",
        "code_postal": "92210",
        "commune": "Saint-Cloud",
        "coords": {
            "lat": 48.85213587169408,
            "lng": 2.2081005951311137
        },
        "entreprise": {
            "siret": "81246296800015",
            "nom": "SINA DECORE"
        }
    },
    {
        "id": 3661,
        "nom": "Ferrand",
        "genre": "F",
        "prenom": "Danielle",
        "job": "Développeur Mobile",
        "naissance": "1969-12-31",
        "insee": "92046",
        "code_postal": "92240",
        "commune": "Malakoff",
        "coords": {
            "lat": 48.8212187993592,
            "lng": 2.291801894962048
        }
    },
    {
        "id": 3673,
        "nom": "Delorme",
        "genre": "F",
        "prenom": "Monique",
        "job": "Ingénieur QA",
        "naissance": "1989-03-17",
        "insee": "92035",
        "code_postal": "92250",
        "commune": "Garenne-Colombes",
        "coords": {
            "lat": 48.910716610301044,
            "lng": 2.25376851740178
        }
    },
    {
        "id": 3690,
        "nom": "Meyer",
        "genre": "F",
        "prenom": "Louise",
        "job": "Data Manager",
        "naissance": "1964-12-09",
        "insee": "92075",
        "code_postal": "92170",
        "commune": "Vanves",
        "coords": {
            "lat": 48.81645193574514,
            "lng": 2.2920964244623727
        },
        "entreprise": {
            "siret": "81246296800015",
            "nom": "SINA DECORE"
        }
    },
    {
        "id": 3691,
        "nom": "Le Roux",
        "genre": "H",
        "prenom": "Édouard",
        "naissance": "2002-10-02",
        "insee": "92004",
        "code_postal": "92600",
        "commune": "Asnières-sur-Seine",
        "coords": {
            "lat": 48.914509567948976,
            "lng": 2.3052113491261883
        }
    },
    {
        "id": 3693,
        "nom": "Leblanc",
        "genre": "F",
        "prenom": "Margaud",
        "job": "Data Scientist",
        "naissance": "1980-08-22",
        "insee": "92036",
        "code_postal": "92230",
        "commune": "Gennevilliers",
        "coords": {
            "lat": 48.92820163490722,
            "lng": 2.2838618862718234
        },
        "entreprise": {
            "siret": "81246296800015",
            "nom": "SINA DECORE"
        }
    },
    {
        "id": 3820,
        "nom": "Thibault",
        "genre": "H",
        "prenom": "Michel",
        "job": "Développeur iOS",
        "naissance": "2005-03-31",
        "insee": "92026",
        "code_postal": "92400",
        "commune": "Courbevoie",
        "coords": {
            "lat": 48.89020691287829,
            "lng": 2.2519254819830654
        }
    },
    {
        "id": 3845,
        "nom": "Cousin",
        "genre": "F",
        "prenom": "Patricia",
        "job": "Ingénieur QA",
        "naissance": "1966-06-14",
        "insee": "92078",
        "code_postal": "92390",
        "commune": "Villeneuve-la-Garenne",
        "coords": {
            "lat": 48.94184442706934,
            "lng": 2.3217092228905396
        }
    },
    {
        "id": 3893,
        "nom": "Duhamel",
        "genre": "F",
        "prenom": "Pénélope",
        "naissance": "2002-07-18",
        "insee": "92007",
        "code_postal": "92220",
        "commune": "Bagneux",
        "coords": {
            "lat": 48.79377080639575,
            "lng": 2.3063791012513244
        },
        "entreprise": {
            "siret": "81246296800015",
            "nom": "SINA DECORE"
        }
    },
    {
        "id": 3894,
        "nom": "Ruiz",
        "genre": "H",
        "prenom": "Nicolas",
        "job": "Développeur Back End",
        "naissance": "1983-07-14",
        "insee": "92075",
        "code_postal": "92170",
        "commune": "Vanves",
        "coords": {
            "lat": 48.82585259461841,
            "lng": 2.2841625342098877
        },
        "entreprise": {
            "siret": "50478756500036",
            "nom": "WITHINGS"
        }
    },
    {
        "id": 3895,
        "nom": "Lefort",
        "genre": "F",
        "prenom": "Anne",
        "job": "CRM Manager",
        "naissance": "1991-12-04",
        "insee": "92002",
        "code_postal": "92160",
        "commune": "Antony",
        "coords": {
            "lat": 48.75285516319724,
            "lng": 2.2990183538567357
        },
        "entreprise": {
            "siret": "81246296800015",
            "nom": "SINA DECORE"
        }
    },
    {
        "id": 3952,
        "nom": "Evrard",
        "genre": "F",
        "prenom": "Margot",
        "job": "Développeur Full Stack",
        "naissance": "1962-02-24",
        "insee": "92060",
        "code_postal": "92350",
        "commune": "Plessis-Robinson",
        "coords": {
            "lat": 48.782944191655275,
            "lng": 2.2663321218688774
        },
        "entreprise": {
            "siret": "81246296800015",
            "nom": "SINA DECORE"
        }
    },
    {
        "id": 4223,
        "nom": "Millet",
        "genre": "F",
        "prenom": "Alex",
        "job": "Directeur Technique",
        "naissance": "1955-06-23",
        "insee": "92047",
        "code_postal": "92430",
        "commune": "Marnes-la-Coquette",
        "coords": {
            "lat": 48.83240492625946,
            "lng": 2.1650231101154778
        },
        "entreprise": {
            "siret": "19920810900017",
            "nom": "ETS REG ENSEIGNEMENT ADAPTE JEAN MONNET"
        }
    },
    {
        "id": 4248,
        "nom": "Bailly",
        "genre": "H",
        "prenom": "Benoît",
        "job": "Data Scientist",
        "naissance": "1959-08-23",
        "insee": "92002",
        "code_postal": "92160",
        "commune": "Antony",
        "coords": {
            "lat": 48.74300121751006,
            "lng": 2.310238770670928
        },
        "entreprise": {
            "siret": "81246296800015",
            "nom": "SINA DECORE"
        }
    },
    {
        "id": 4249,
        "nom": "Coste",
        "genre": "F",
        "prenom": "Céline",
        "job": "Consultant CRM",
        "naissance": "1981-03-26",
        "insee": "92077",
        "code_postal": "92410",
        "commune": "Ville-d'Avray",
        "coords": {
            "lat": 48.82494217615704,
            "lng": 2.178564778942664
        },
        "entreprise": {
            "siret": "77572987400245",
            "nom": "LES PAPILLONS BLANCS DE LA COLLINE"
        }
    },
    {
        "id": 4257,
        "nom": "Fernandez",
        "genre": "F",
        "prenom": "Michèle",
        "job": "Développeur Mobile",
        "naissance": "1963-05-18",
        "insee": "92063",
        "code_postal": "92500",
        "commune": "Rueil-Malmaison",
        "coords": {
            "lat": 48.874777286471385,
            "lng": 2.1681656867866526
        }
    },
    {
        "id": 4259,
        "nom": "Joseph",
        "genre": "H",
        "prenom": "Noël",
        "job": "Directeur Technique",
        "naissance": "1971-09-28",
        "insee": "92035",
        "code_postal": "92250",
        "commune": "Garenne-Colombes",
        "coords": {
            "lat": 48.90617396061091,
            "lng": 2.2448283751369997
        }
    },
    {
        "id": 4291,
        "nom": "Dufour",
        "genre": "H",
        "prenom": "Matthieu",
        "job": "Développeur iOS",
        "naissance": "1998-04-10",
        "insee": "92009",
        "code_postal": "92270",
        "commune": "Bois-Colombes",
        "coords": {
            "lat": 48.91392085555842,
            "lng": 2.2653105490063097
        }
    },
    {
        "id": 4360,
        "nom": "Ollivier",
        "genre": "H",
        "prenom": "Franck",
        "job": "CRM Manager",
        "naissance": "1986-11-01",
        "insee": "92077",
        "code_postal": "92410",
        "commune": "Ville-d'Avray",
        "coords": {
            "lat": 48.817216220268996,
            "lng": 2.1752407969061633
        }
    },
    {
        "id": 4429,
        "nom": "Humbert",
        "genre": "F",
        "prenom": "Alix",
        "job": "Développeur Android",
        "naissance": "1996-01-30",
        "insee": "92026",
        "code_postal": "92400",
        "commune": "Courbevoie",
        "coords": {
            "lat": 48.90328769835828,
            "lng": 2.246467032108565
        }
    },
    {
        "id": 4431,
        "nom": "Lenoir",
        "genre": "H",
        "prenom": "Étienne",
        "job": "Administrateur Système",
        "naissance": "1995-03-15",
        "insee": "92049",
        "code_postal": "92120",
        "commune": "Montrouge",
        "coords": {
            "lat": 48.81226298866025,
            "lng": 2.3121836755517284
        }
    },
    {
        "id": 4573,
        "nom": "Clerc",
        "genre": "H",
        "prenom": "Auguste",
        "job": "Data Scientist",
        "naissance": "1976-09-11",
        "insee": "92019",
        "code_postal": "92290",
        "commune": "Châtenay-Malabry",
        "coords": {
            "lat": 48.76069380241428,
            "lng": 2.26898806287632
        }
    },
    {
        "id": 4656,
        "nom": "Menard",
        "genre": "F",
        "prenom": "Thérèse",
        "job": "Administrateur Système",
        "naissance": "1969-06-18",
        "insee": "92060",
        "code_postal": "92350",
        "commune": "Plessis-Robinson",
        "coords": {
            "lat": 48.78715366335674,
            "lng": 2.2673314198908194
        },
        "entreprise": {
            "siret": "81246296800015",
            "nom": "SINA DECORE"
        }
    },
    {
        "id": 4697,
        "nom": "Klein",
        "genre": "F",
        "prenom": "Diane",
        "job": "Développeur iOS",
        "naissance": "1973-01-22",
        "insee": "92009",
        "code_postal": "92270",
        "commune": "Bois-Colombes",
        "coords": {
            "lat": 48.923962789341225,
            "lng": 2.260672045070476
        },
        "entreprise": {
            "siret": "81246296800015",
            "nom": "SINA DECORE"
        }
    },
    {
        "id": 4777,
        "nom": "Blanchard",
        "genre": "F",
        "prenom": "Margot",
        "job": "Développeur PHP",
        "naissance": "2005-05-11",
        "insee": "92071",
        "code_postal": "92330",
        "commune": "Sceaux",
        "coords": {
            "lat": 48.78237595298382,
            "lng": 2.3024140495906065
        },
        "entreprise": {
            "siret": "81246296800015",
            "nom": "SINA DECORE"
        }
    },
    {
        "id": 4787,
        "nom": "Aubry",
        "genre": "F",
        "prenom": "Laure",
        "job": "Data Scientist",
        "naissance": "1958-07-29",
        "insee": "92020",
        "code_postal": "92320",
        "commune": "Châtillon",
        "coords": {
            "lat": 48.80070583655182,
            "lng": 2.3002452447151454
        },
        "entreprise": {
            "siret": "81246296800015",
            "nom": "SINA DECORE"
        }
    },
    {
        "id": 4821,
        "nom": "Fouquet",
        "genre": "F",
        "prenom": "Thérèse",
        "job": "Ingénieur QA",
        "naissance": "1968-12-09",
        "insee": "92063",
        "code_postal": "92500",
        "commune": "Rueil-Malmaison",
        "coords": {
            "lat": 48.8638483379436,
            "lng": 2.169332926873341
        },
        "entreprise": {
            "siret": "81246296800015",
            "nom": "SINA DECORE"
        }
    },